{"_id":"5c1d64f6b8d8ba24f4b46a9b","dataset":"vlille-config","time":1545430262579,"data":[{"id":235,"geo":[50.696327,3.16713],"geo_lat":50.696327,"geo_lng":3.16713,"nom_station":"BLANCHEMAILLE","adresse":"AVENUE DES NATIONS UNIES ANGLE RUE BLANCHEMAILLE","type":"SANS TPE"},{"id":219,"geo":[50.695477,3.164222],"geo_lat":50.695477,"geo_lng":3.164222,"nom_station":"GARE JEAN LEBAS","adresse":"PLACE DE LA GARE","type":"AVEC TPE"},{"id":220,"geo":[50.693768,3.167666],"geo_lat":50.693768,"geo_lng":3.167666,"nom_station":"MUSEE ART ET INDUSTRIE","adresse":"105, AVENUE JEAN-BAPTISTE LEBAS","type":"AVEC TPE"},{"id":123,"geo":[50.665348,3.075792],"geo_lat":50.665348,"geo_lng":3.075792,"nom_station":"RUE DE L'EGLISE","adresse":"71, RUE NATIONALE","type":"AVEC TPE"},{"id":131,"geo":[50.619602,3.13197],"geo_lat":50.619602,"geo_lng":3.13197,"nom_station":"V.ASCQ HOTEL DE VILLE","adresse":"RUE VERMEER - PARKING DE L'HÔTEL DE VILLE","type":"AVEC TPE"},{"id":238,"geo":[50.72075,3.152659],"geo_lat":50.72075,"geo_lng":3.152659,"nom_station":"THEATRE TOURCOING","adresse":"1, RUE DE L'ALMA","type":"AVEC TPE"},{"id":101,"geo":[50.6423,3.099291],"geo_lat":50.6423,"geo_lng":3.099291,"nom_station":"MONS SARTS","adresse":"AVENUE DES ACACIAS","type":"AVEC TPE"},{"id":102,"geo":[50.642418,3.110835],"geo_lat":50.642418,"geo_lng":3.110835,"nom_station":"MAIRIE DE MONS","adresse":"AVENUE ROBERT SCHUMAN","type":"AVEC TPE"},{"id":112,"geo":[50.626846,3.115101],"geo_lat":50.626846,"geo_lng":3.115101,"nom_station":"SQUARE CHARLES DE GAULLE","adresse":"4, RUE FERDINAND BUISSON","type":"SANS TPE"},{"id":229,"geo":[50.692368,3.185092],"geo_lat":50.692368,"geo_lng":3.185092,"nom_station":"NATIONS UNIES","adresse":"158, BOULEVARD GAMBETTA","type":"SANS TPE"},{"id":255,"geo":[50.7134,3.165011],"geo_lat":50.7134,"geo_lng":3.165011,"nom_station":"RUE DE ROUBAIX","adresse":"SECTEUR UNION","type":"SANS TPE"},{"id":49,"geo":[50.61957,3.068387],"geo_lat":50.61957,"geo_lng":3.068387,"nom_station":"PLACE DELIOT","adresse":"1 PLACE DELIOT","type":"SANS TPE"},{"id":88,"geo":[50.635082,3.058015],"geo_lat":50.635082,"geo_lng":3.058015,"nom_station":"RUE NATIONALE","adresse":"91 RUE NATIONALE","type":"AVEC TPE"},{"id":52,"geo":[50.62276,3.063799],"geo_lat":50.62276,"geo_lng":3.063799,"nom_station":"PLACE COLETTE BESSON","adresse":"FACE AU 37 RUE DE WAZEMMES","type":"SANS TPE"},{"id":80,"geo":[50.61989,3.084357],"geo_lat":50.61989,"geo_lng":3.084357,"nom_station":"PETIT MAROC","adresse":"RUE DU PROFESSEUR LANGEVIN","type":"AVEC TPE"},{"id":97,"geo":[50.65937,3.074057],"geo_lat":50.65937,"geo_lng":3.074057,"nom_station":"LA MADELEINE GARE","adresse":"250 RUE GENERAL DE GAULLE","type":"SANS TPE"},{"id":264,"geo":[50.697895,3.206297],"geo_lat":50.697895,"geo_lng":3.206297,"nom_station":"REPUBLIQUE","adresse":"203 RUE CARNOT","type":"SANS TPE"},{"id":139,"geo":[50.62577,3.144714],"geo_lat":50.62577,"geo_lng":3.144714,"nom_station":"RUE DE LILLE","adresse":"RUE DE LILLE","type":"SANS TPE"},{"id":6,"geo":[50.630943,3.060299],"geo_lat":50.630943,"geo_lng":3.060299,"nom_station":"REPUBLIQUE BEAUX ARTS","adresse":"2 RUE INKERMAN","type":"AVEC TPE"},{"id":75,"geo":[50.637337,3.084894],"geo_lat":50.637337,"geo_lng":3.084894,"nom_station":"EUGENE JACQUET","adresse":"59 RUE EUGENE JACQUET","type":"AVEC TPE"},{"id":144,"geo":[50.6258,3.14862],"geo_lat":50.6258,"geo_lng":3.14862,"nom_station":"ANNAPPES REPUBLIQUE","adresse":"FACE AU 1 BIS RUE DE LA STATION","type":"AVEC TPE"},{"id":146,"geo":[50.63268,3.052483],"geo_lat":50.63268,"geo_lng":3.052483,"nom_station":"SOLFERINO NATIONALE","adresse":"FACE 171 RUE NATIONALE","type":"AVEC TPE"},{"id":153,"geo":[50.65547,3.064989],"geo_lat":50.65547,"geo_lng":3.064989,"nom_station":"POMPIDOU","adresse":"FACE AU 102 ALLEE DU RIEZ","type":"SANS TPE"},{"id":116,"geo":[50.64891,3.078336],"geo_lat":50.64891,"geo_lng":3.078336,"nom_station":"BOTANIQUE","adresse":"185, AVENUE DE LA RÉPUBLIQUE","type":"SANS TPE"},{"id":244,"geo":[50.727448,3.16646],"geo_lat":50.727448,"geo_lng":3.16646,"nom_station":"F ROOSEVELT","adresse":"2-14 BOULEVARD DE L'ÉGALITÉ","type":"SANS TPE"},{"id":253,"geo":[50.725006,3.150677],"geo_lat":50.725006,"geo_lng":3.150677,"nom_station":"AVENUE MILLET","adresse":"SECTEUR RUE CONDORCET","type":"SANS TPE"},{"id":42,"geo":[50.627586,3.061974],"geo_lat":50.627586,"geo_lng":3.061974,"nom_station":"PLACE PHILIPPE LEBON","adresse":"15 PLACE PHILLIPPE LEBON","type":"AVEC TPE"},{"id":51,"geo":[50.62482,3.068689],"geo_lat":50.62482,"geo_lng":3.068689,"nom_station":"JB LEBAS","adresse":"2 RUE CAMBRAI","type":"SANS TPE"},{"id":54,"geo":[50.62338,3.051565],"geo_lat":50.62338,"geo_lng":3.051565,"nom_station":"METRO WAZEMMES","adresse":"93 RUE RACINE","type":"AVEC TPE"},{"id":56,"geo":[50.620304,3.055471],"geo_lat":50.620304,"geo_lng":3.055471,"nom_station":"BD VICTOR HUGO","adresse":"214 BOULEVARD VICTOR HUGO","type":"AVEC TPE"},{"id":89,"geo":[50.619312,3.041299],"geo_lat":50.619312,"geo_lng":3.041299,"nom_station":"BOULEVARD DE METZ","adresse":"40 BOULEVARD DE METZ","type":"SANS TPE"},{"id":71,"geo":[50.634045,3.030778],"geo_lat":50.634045,"geo_lng":3.030778,"nom_station":"BOIS BLANCS","adresse":"122 AVENUE DE DUNKERQUE","type":"AVEC TPE"},{"id":78,"geo":[50.615536,3.048518],"geo_lat":50.615536,"geo_lng":3.048518,"nom_station":"HOTEL DE POLICE","adresse":"RUE DU FAUBOURG DES POSTES","type":"SANS TPE"},{"id":93,"geo":[50.628918,3.088147],"geo_lat":50.628918,"geo_lng":3.088147,"nom_station":"STADE BALLET","adresse":"85 RUE DU LONG POT","type":"SANS TPE"},{"id":95,"geo":[50.63041,3.097037],"geo_lat":50.63041,"geo_lng":3.097037,"nom_station":"MARBRERIE","adresse":"280 BIS RUE PIERRE LEGRAND","type":"AVEC TPE"},{"id":222,"geo":[50.6941,3.172165],"geo_lat":50.6941,"geo_lng":3.172165,"nom_station":"LES GOBELINS","adresse":"32, RUE DE LA COMMUNAUTÉ URBAINE","type":"SANS TPE"},{"id":122,"geo":[50.665714,3.087294],"geo_lat":50.665714,"geo_lng":3.087294,"nom_station":"PISCINE DE MARCQ","adresse":"298-300 AVENUE DE LATTRE DE TASSIGNY","type":"SANS TPE"},{"id":23,"geo":[50.639107,3.065548],"geo_lat":50.639107,"geo_lng":3.065548,"nom_station":"RUE DES ARTS","adresse":"41 RUE DES ARTS","type":"SANS TPE"},{"id":34,"geo":[50.63413,3.041209],"geo_lat":50.63413,"geo_lng":3.041209,"nom_station":"PLACE CATINAT","adresse":"199 RUE COLBERT","type":"AVEC TPE"},{"id":57,"geo":[50.62418,3.058902],"geo_lat":50.62418,"geo_lng":3.058902,"nom_station":"BARTHELEMY DELESPAUL","adresse":"FACE AU 52 RUE BARTHELEMY DELESPAUL","type":"SANS TPE"},{"id":221,"geo":[50.69184,3.173925],"geo_lat":50.69184,"geo_lng":3.173925,"nom_station":"ROUBAIX MAIRIE","adresse":"FACE AU 1, CONTOUR  SAINT MARTIN","type":"AVEC TPE"},{"id":210,"geo":[50.676884,3.187817],"geo_lat":50.676884,"geo_lng":3.187817,"nom_station":"LINNE","adresse":"192, AVENUE DE LINNÉ","type":"SANS TPE"},{"id":152,"geo":[50.61058,3.065103],"geo_lat":50.61058,"geo_lng":3.065103,"nom_station":"CHEMIN ROUGE","adresse":"FACE AU 2 CHEMIN ROUGE","type":"SANS TPE"},{"id":13,"geo":[50.63671,3.054773],"geo_lat":50.63671,"geo_lng":3.054773,"nom_station":"QUAI DU WAULT","adresse":"17 SQUARE DUTILLEUL","type":"AVEC TPE"},{"id":11,"geo":[50.63734,3.060977],"geo_lat":50.63734,"geo_lng":3.060977,"nom_station":"NOUVEAU SIECLE","adresse":"10 RUE DE PAS (SUR LA PLACE PIERRE MENDES FRANCE)","type":"AVEC TPE"},{"id":19,"geo":[50.64031,3.05774],"geo_lat":50.64031,"geo_lng":3.05774,"nom_station":"RUE ROYALE","adresse":"40 RUE ROYALE","type":"AVEC TPE"},{"id":24,"geo":[50.63698,3.071009],"geo_lat":50.63698,"geo_lng":3.071009,"nom_station":"FLANDRES EURALILLE","adresse":"PLACE DES BUISSES","type":"AVEC TPE"},{"id":62,"geo":[50.632965,3.076437],"geo_lat":50.632965,"geo_lng":3.076437,"nom_station":"ZENITH","adresse":"BOULEVARD EMILE DUBUISSON","type":"AVEC TPE"},{"id":38,"geo":[50.62429,3.045321],"geo_lat":50.62429,"geo_lng":3.045321,"nom_station":"PLACE CASQUETTE","adresse":"1 RUE D'HAUBOURDIN","type":"SANS TPE"},{"id":10,"geo":[50.63589,3.062471],"geo_lat":50.63589,"geo_lng":3.062471,"nom_station":"RIHOUR","adresse":"ANGLE PLACE RIHOUR RUE JEAN ROISIN","type":"AVEC TPE"},{"id":259,"geo":[50.704693,3.160515],"geo_lat":50.704693,"geo_lng":3.160515,"nom_station":"MERCURE","adresse":"BOULEVARD GAMBETTA (FACE À LA STATION DE TAXI)","type":"SANS TPE"},{"id":209,"geo":[50.674995,3.195737],"geo_lat":50.674995,"geo_lng":3.195737,"nom_station":"USINE","adresse":"AVENUE ALFRED MOTTE","type":"AVEC TPE"},{"id":22,"geo":[50.64124,3.064987],"geo_lat":50.64124,"geo_lng":3.064987,"nom_station":"LOUISE DE BETTIGNIES","adresse":"PLACE LOUISE DE BETTIGNIES","type":"AVEC TPE"},{"id":14,"geo":[50.63781,3.052217],"geo_lat":50.63781,"geo_lng":3.052217,"nom_station":"CHAMP DE MARS","adresse":"AVENUE LEON JOUHAUX (QUAI DE LA CITADELLE)","type":"AVEC TPE"},{"id":140,"geo":[50.623795,3.144815],"geo_lat":50.623795,"geo_lng":3.144815,"nom_station":"RUE CORNEILLE","adresse":"RUE CORNEILLE (DEVANT ÉCOLE DE MUSIQUE)","type":"SANS TPE"},{"id":117,"geo":[50.641617,3.031375],"geo_lat":50.641617,"geo_lng":3.031375,"nom_station":"HIPPODROME","adresse":"9, AVENUE HENRI GRUSON","type":"AVEC TPE"},{"id":12,"geo":[50.637486,3.065902],"geo_lat":50.637486,"geo_lng":3.065902,"nom_station":"OPERA","adresse":"FACE AU 8 RUE ANATOLE FRANCE","type":"AVEC TPE"},{"id":132,"geo":[50.61606,3.132006],"geo_lat":50.61606,"geo_lng":3.132006,"nom_station":"CENTRE COMMERCIAL V2","adresse":"BOULEVARD VALMY","type":"AVEC TPE"},{"id":105,"geo":[50.638126,3.10231],"geo_lat":50.638126,"geo_lng":3.10231,"nom_station":"VERDUN","adresse":"69 AVENUE DE VERDUN","type":"SANS TPE"},{"id":252,"geo":[50.72263,3.150377],"geo_lat":50.72263,"geo_lng":3.150377,"nom_station":"RUE DES POUTRAINS","adresse":"RUE DE LILLE","type":"SANS TPE"},{"id":44,"geo":[50.629063,3.053711],"geo_lat":50.629063,"geo_lng":3.053711,"nom_station":"GAMBETTA UTRECHT","adresse":"199 RUE LEON GAMBETTA","type":"SANS TPE"},{"id":61,"geo":[50.629246,3.075218],"geo_lat":50.629246,"geo_lng":3.075218,"nom_station":"LILLE GRAND PALAIS","adresse":"30 BOULEVARD DU MARECHAL VAILLANT","type":"SANS TPE"},{"id":99,"geo":[50.654602,3.073805],"geo_lat":50.654602,"geo_lng":3.073805,"nom_station":"LA MADELEINE MAIRIE","adresse":"RUE DU GENERAL DE GAULLE","type":"AVEC TPE"},{"id":224,"geo":[50.691406,3.162704],"geo_lat":50.691406,"geo_lng":3.162704,"nom_station":"CENTRE NAUTIQUE","adresse":"26, RUE DE L'EPEULE","type":"AVEC TPE"},{"id":130,"geo":[50.624516,3.127894],"geo_lat":50.624516,"geo_lng":3.127894,"nom_station":"PONT DE BOIS","adresse":"RUE BAUDOUIN IX - MÉTRO PONT DE BOIS","type":"AVEC TPE"},{"id":104,"geo":[50.64584,3.112744],"geo_lat":50.64584,"geo_lng":3.112744,"nom_station":"MENDES FRANCE","adresse":"BD NAPOLEON 1ER","type":"SANS TPE"},{"id":106,"geo":[50.638123,3.112704],"geo_lat":50.638123,"geo_lng":3.112704,"nom_station":"CONCORDE","adresse":"27 BOULEVARD ALPHONSE GAYET","type":"AVEC TPE"},{"id":115,"geo":[50.651497,3.072316],"geo_lat":50.651497,"geo_lng":3.072316,"nom_station":"DE GAULLE","adresse":"85, RUE DU GÉNÉRAL DE GAULLE","type":"SANS TPE"},{"id":249,"geo":[50.728798,3.154051],"geo_lat":50.728798,"geo_lng":3.154051,"nom_station":"RUE DE MENIN","adresse":"FACE AU 40 RUE JOURDAN","type":"SANS TPE"},{"id":30,"geo":[50.64306,3.067452],"geo_lat":50.64306,"geo_lng":3.067452,"nom_station":"RUE DE GAND","adresse":"8 PLACE DE GAND","type":"AVEC TPE"},{"id":84,"geo":[50.627243,3.109266],"geo_lat":50.627243,"geo_lng":3.109266,"nom_station":"MAIRIE D'HELLEMMES","adresse":"165 RUE ROGER SALENGRO","type":"AVEC TPE"},{"id":58,"geo":[50.620857,3.078947],"geo_lat":50.620857,"geo_lng":3.078947,"nom_station":"PORTE DE VALENCIENNES","adresse":"BOULEVARD DE BELFORT","type":"AVEC TPE"},{"id":40,"geo":[50.62614,3.051729],"geo_lat":50.62614,"geo_lng":3.051729,"nom_station":"METRO GAMBETTA","adresse":"41 RUE DU MARCHE","type":"AVEC TPE"},{"id":63,"geo":[50.629738,3.078224],"geo_lat":50.629738,"geo_lng":3.078224,"nom_station":"HOTEL DE REGION","adresse":"BOULEVARD DU PRESIDENT HOOVER","type":"AVEC TPE"},{"id":65,"geo":[50.621128,3.035483],"geo_lat":50.621128,"geo_lng":3.035483,"nom_station":"PLACE TACQ","adresse":"70 RUE DE LOOS","type":"AVEC TPE"},{"id":81,"geo":[50.63529,3.115088],"geo_lat":50.63529,"geo_lng":3.115088,"nom_station":"GUINGUETTE","adresse":"RUE JACQUARD","type":"SANS TPE"},{"id":68,"geo":[50.630836,3.047778],"geo_lat":50.630836,"geo_lng":3.047778,"nom_station":"NATIONALE RUE DU PORT","adresse":"244 - 254 RUE NATIONALE","type":"SANS TPE"},{"id":231,"geo":[50.689762,3.177179],"geo_lat":50.689762,"geo_lng":3.177179,"nom_station":"MOTTE BOSSUT","adresse":"ROND POINT DE L'EUROPE","type":"SANS TPE"},{"id":215,"geo":[50.684593,3.200799],"geo_lat":50.684593,"geo_lng":3.200799,"nom_station":"TROIS PONTS","adresse":"186, AVENUE JULIEN LAGACHE","type":"SANS TPE"},{"id":103,"geo":[50.639828,3.106677],"geo_lat":50.639828,"geo_lng":3.106677,"nom_station":"LACORDAIRE","adresse":"44 RUE LACORDAIRE (FACE A LA PISCINE)","type":"SANS TPE"},{"id":108,"geo":[50.645267,3.100516],"geo_lat":50.645267,"geo_lng":3.100516,"nom_station":"GENERAL DE GAULLE","adresse":"108 RUE DU GENERAL DE GAULLE","type":"AVEC TPE"},{"id":248,"geo":[50.728798,3.158835],"geo_lat":50.728798,"geo_lng":3.158835,"nom_station":"RUE SAINT BLAISE","adresse":"85, RUE DE GAND","type":"AVEC TPE"},{"id":82,"geo":[50.63999,3.075204],"geo_lat":50.63999,"geo_lng":3.075204,"nom_station":"GARE LILLE EUROPE","adresse":"299 BOULEVARD DE LEEDS","type":"AVEC TPE"},{"id":70,"geo":[50.63424,3.073991],"geo_lat":50.63424,"geo_lng":3.073991,"nom_station":"CITE ADMINISTRATIVE","adresse":"51 RUE DE TOURNAI","type":"SANS TPE"},{"id":16,"geo":[50.646225,3.053499],"geo_lat":50.646225,"geo_lng":3.053499,"nom_station":"MAGASIN","adresse":"3 RUE SAINT ANDRE","type":"SANS TPE"},{"id":118,"geo":[50.641834,3.022364],"geo_lat":50.641834,"geo_lng":3.022364,"nom_station":"COLLEGE LAVOISIER","adresse":"56, RUE PAUL VAILLANT","type":"SANS TPE"},{"id":228,"geo":[50.69535,3.180779],"geo_lat":50.69535,"geo_lng":3.180779,"nom_station":"PELLART","adresse":"15, RUE PELLART","type":"SANS TPE"},{"id":223,"geo":[50.690315,3.16912],"geo_lat":50.690315,"geo_lng":3.16912,"nom_station":"PLACE TRICHON","adresse":"3, PLACE DU TRICHON","type":"SANS TPE"},{"id":234,"geo":[50.7004,3.161378],"geo_lat":50.7004,"geo_lng":3.161378,"nom_station":"ALSACE","adresse":"89, BOULEVARD D'ARMENTIÈRES","type":"AVEC TPE"},{"id":263,"geo":[50.69626,3.209156],"geo_lat":50.69626,"geo_lng":3.209156,"nom_station":"STALINGRAD","adresse":"38-4 RUE DE STALINGRAD","type":"SANS TPE"},{"id":32,"geo":[50.64142,3.067873],"geo_lat":50.64142,"geo_lng":3.067873,"nom_station":"PLACE AUX BLEUETS","adresse":"15 RUE DE COURTRAI","type":"SANS TPE"},{"id":77,"geo":[50.622963,3.091363],"geo_lat":50.622963,"geo_lng":3.091363,"nom_station":"MONT DE TERRE","adresse":"7 RUE MATTEOTI","type":"SANS TPE"},{"id":96,"geo":[50.64543,3.075116],"geo_lat":50.64543,"geo_lng":3.075116,"nom_station":"ROMARIN","adresse":"ALLEE VICTOR BASCH","type":"AVEC TPE"},{"id":201,"geo":[50.673943,3.163443],"geo_lat":50.673943,"geo_lng":3.163443,"nom_station":"EDHEC","adresse":"272, RUE VERTE","type":"SANS TPE"},{"id":36,"geo":[50.62624,3.039911],"geo_lat":50.62624,"geo_lng":3.039911,"nom_station":"CORMONTAIGNE","adresse":"16 - 36 PLACE CORMONTAIGNE","type":"AVEC TPE"},{"id":87,"geo":[50.632393,3.110669],"geo_lat":50.632393,"geo_lng":3.110669,"nom_station":"JULES GUESDE","adresse":"RUE ST ELOI","type":"AVEC TPE"},{"id":8,"geo":[50.632366,3.062313],"geo_lat":50.632366,"geo_lng":3.062313,"nom_station":"PLACE RICHEBE","adresse":"3 PLACE RICHEBE","type":"AVEC TPE"},{"id":154,"geo":[50.65532,3.060615],"geo_lat":50.65532,"geo_lng":3.060615,"nom_station":"CHAUFFERIE","adresse":"FACE AU 125 RUE ROGER SALENGRO","type":"AVEC TPE"},{"id":227,"geo":[50.699436,3.159658],"geo_lat":50.699436,"geo_lng":3.159658,"nom_station":"BVRD ARMENTIERES","adresse":"1, BOULEVARD D'ARMENTIÈRES","type":"SANS TPE"},{"id":200,"geo":[50.679123,3.155906],"geo_lat":50.679123,"geo_lng":3.155906,"nom_station":"MAIRIE DE CROIX","adresse":"FACE AU 232, RUE JEAN JAURÈS","type":"AVEC TPE"},{"id":203,"geo":[50.68079,3.167454],"geo_lat":50.68079,"geo_lng":3.167454,"nom_station":"VICTOR PROVO","adresse":"BOULEVARD DU GÉNÉRAL DE GAULLE","type":"AVEC TPE"},{"id":26,"geo":[50.63457,3.068007],"geo_lat":50.63457,"geo_lng":3.068007,"nom_station":"MOLINEL","adresse":"58 RUE DU MOLINEL","type":"SANS TPE"},{"id":41,"geo":[50.656487,3.088004],"geo_lat":50.656487,"geo_lng":3.088004,"nom_station":"BUISSON","adresse":"681 AVENUE DE LA REPUBLIQUE","type":"AVEC TPE"},{"id":72,"geo":[50.637302,3.024314],"geo_lat":50.637302,"geo_lng":3.024314,"nom_station":"CANTELEU","adresse":"237 AVENUE DE DUNKERQUE","type":"SANS TPE"},{"id":76,"geo":[50.632996,3.089651],"geo_lat":50.632996,"geo_lng":3.089651,"nom_station":"FIVES","adresse":"123 RUE PIERRE LEGRAND","type":"AVEC TPE"},{"id":232,"geo":[50.699734,3.174347],"geo_lat":50.699734,"geo_lng":3.174347,"nom_station":"FOSSE AUX CHENES","adresse":"13, PLACE DE LA FOSSE AUX CHÊNES","type":"AVEC TPE"},{"id":245,"geo":[50.724686,3.165703],"geo_lat":50.724686,"geo_lng":3.165703,"nom_station":"JARDIN BOTANIQUE","adresse":"126, RUE VERTE","type":"AVEC TPE"},{"id":202,"geo":[50.677914,3.162353],"geo_lat":50.677914,"geo_lng":3.162353,"nom_station":"PARC BARBIEUX","adresse":"AVENUE JEAN JAURES","type":"SANS TPE"},{"id":213,"geo":[50.68859,3.182028],"geo_lat":50.68859,"geo_lng":3.182028,"nom_station":"LANNOY","adresse":"93, RUE DE LANNOY","type":"SANS TPE"},{"id":156,"geo":[50.661602,3.050322],"geo_lat":50.661602,"geo_lng":3.050322,"nom_station":"ST ANDRE MAIRIE","adresse":"FACE AU 92 RUE DU GENERAL LECLERC","type":"AVEC TPE"},{"id":127,"geo":[50.63708,3.127964],"geo_lat":50.63708,"geo_lng":3.127964,"nom_station":"FLERS MAIRIE","adresse":"16 RUE DU GÉNÉRAL LECLERC","type":"AVEC TPE"},{"id":129,"geo":[50.63608,3.130853],"geo_lat":50.63608,"geo_lng":3.130853,"nom_station":"FLERS CHATEAU","adresse":"RUE DE LA CHEVALERIE","type":"AVEC TPE"},{"id":133,"geo":[50.61915,3.126501],"geo_lat":50.61915,"geo_lng":3.126501,"nom_station":"BOULEVARD DE VALMY","adresse":"FACE AU 233 BOULEVARD DE VALMY","type":"AVEC TPE"},{"id":83,"geo":[50.63407,3.02066],"geo_lat":50.63407,"geo_lng":3.02066,"nom_station":"EURATECHNOLOGIES","adresse":"AVENUE DE BRETAGNE (DEVANT L'ENTREE D'EURATECHNOLOGIE)","type":"AVEC TPE"},{"id":47,"geo":[50.62824,3.069233],"geo_lat":50.62824,"geo_lng":3.069233,"nom_station":"BOULEVARD LOUIS XIV","adresse":"1 BOULEVARD JEAN BAPTISTE LEBAS","type":"AVEC TPE"},{"id":257,"geo":[50.714733,3.157181],"geo_lat":50.714733,"geo_lng":3.157181,"nom_station":"CHARLES WATTINNE","adresse":"PONT HYDRAULIQUE","type":"AVEC TPE"},{"id":261,"geo":[50.732277,3.157656],"geo_lat":50.732277,"geo_lng":3.157656,"nom_station":"PHALEMPINS","adresse":"PHALEMPINS","type":"AVEC TPE"},{"id":50,"geo":[50.62224,3.067004],"geo_lat":50.62224,"geo_lng":3.067004,"nom_station":"RUE D'ARRAS","adresse":"4 RUE WAZEMMES","type":"AVEC TPE"},{"id":64,"geo":[50.6318,3.071392],"geo_lat":50.6318,"geo_lng":3.071392,"nom_station":"MAIRIE DE LILLE","adresse":"17 RUE SAINT SAUVEUR","type":"AVEC TPE"},{"id":226,"geo":[50.68645,3.170006],"geo_lat":50.68645,"geo_lng":3.170006,"nom_station":"CHARLES DE GAULLE","adresse":"72, RUE DE LILLE","type":"AVEC TPE"},{"id":242,"geo":[50.716843,3.167834],"geo_lat":50.716843,"geo_lng":3.167834,"nom_station":"TOURCOING GARE","adresse":"PLACE PIERRE SEMARD","type":"AVEC TPE"},{"id":48,"geo":[50.61831,3.0722],"geo_lat":50.61831,"geo_lng":3.0722,"nom_station":"PORTE DE DOUAI","adresse":"PLACE FERNIG","type":"AVEC TPE"},{"id":217,"geo":[50.67869,3.172558],"geo_lat":50.67869,"geo_lng":3.172558,"nom_station":"HOPITAL VICTOR PROVO","adresse":"BOULEVARD DE LYON","type":"SANS TPE"},{"id":218,"geo":[50.67392,3.18514],"geo_lat":50.67392,"geo_lng":3.18514,"nom_station":"PLACE SPRIET","adresse":"PLACE CHARLES SPRIET","type":"AVEC TPE"},{"id":5,"geo":[50.63156,3.054738],"geo_lat":50.63156,"geo_lng":3.054738,"nom_station":"MASSENA","adresse":"73 RUE MASSENA","type":"AVEC TPE"},{"id":142,"geo":[50.6206,3.138207],"geo_lat":50.6206,"geo_lng":3.138207,"nom_station":"TREMIERE","adresse":"RUE TRÉMIÈRES ANGLE RUE DES FUSILLÉS","type":"SANS TPE"},{"id":119,"geo":[50.640957,3.018803],"geo_lat":50.640957,"geo_lng":3.018803,"nom_station":"LOMME-LAMBERSART","adresse":"390, AVENUE DE DUNKERQUE","type":"SANS TPE"},{"id":135,"geo":[50.63745,3.123145],"geo_lat":50.63745,"geo_lng":3.123145,"nom_station":"FLERS MASQUELIER","adresse":"97, RUE JULES GUESDE","type":"SANS TPE"},{"id":113,"geo":[50.651337,3.08945],"geo_lat":50.651337,"geo_lng":3.08945,"nom_station":"AVENUE DE MORMAL","adresse":"16, RUE DU BUISSON","type":"SANS TPE"},{"id":28,"geo":[50.634686,3.048344],"geo_lat":50.634686,"geo_lng":3.048344,"nom_station":"PALAIS RAMEAU","adresse":"17 RUE SOLFERINO","type":"AVEC TPE"},{"id":9,"geo":[50.63393,3.044986],"geo_lat":50.63393,"geo_lng":3.044986,"nom_station":"RUE DE TOUL","adresse":"18 RUE DE TOUL","type":"SANS TPE"},{"id":141,"geo":[50.61682,3.140808],"geo_lat":50.61682,"geo_lng":3.140808,"nom_station":"METRO TRIOLO","adresse":"2 RUE TRAVERSIÈRE ANGLE ALLÉE TURGOT","type":"AVEC TPE"},{"id":205,"geo":[50.69094,3.188538],"geo_lat":50.69094,"geo_lng":3.188538,"nom_station":"CONDITION PUBLIQUE","adresse":"45, RUE LOUIS DUPIRE","type":"AVEC TPE"},{"id":35,"geo":[50.62899,3.043307],"geo_lat":50.62899,"geo_lng":3.043307,"nom_station":"LECLERC","adresse":"24 PLACE MARECHAL LECLERC","type":"AVEC TPE"},{"id":240,"geo":[50.71922,3.163396],"geo_lat":50.71922,"geo_lng":3.163396,"nom_station":"POSTE","adresse":"22, RUE LÉON SALEMBIER","type":"AVEC TPE"},{"id":256,"geo":[50.73696,3.171169],"geo_lat":50.73696,"geo_lng":3.171169,"nom_station":"PONT DE NEUVILLE","adresse":"301, RUE DU PONT DE NEUVILLE","type":"AVEC TPE"},{"id":67,"geo":[50.621952,3.04534],"geo_lat":50.621952,"geo_lng":3.04534,"nom_station":"MONTEBELLO","adresse":"122 BOULEVARD MONTEBELLO","type":"AVEC TPE"},{"id":74,"geo":[50.641018,3.082493],"geo_lat":50.641018,"geo_lng":3.082493,"nom_station":"FAUBOURG DE ROUBAIX","adresse":"104 RUE DU FAUBOURG DE ROUBAIX","type":"SANS TPE"},{"id":250,"geo":[50.72389,3.160344],"geo_lat":50.72389,"geo_lng":3.160344,"nom_station":"TOURCOING MAIRIE","adresse":"6 BIS, RUE NATIONALE","type":"AVEC TPE"},{"id":258,"geo":[50.710735,3.159881],"geo_lat":50.710735,"geo_lng":3.159881,"nom_station":"CARLIERS","adresse":"135, CHAUSSÉE GALILÉE","type":"AVEC TPE"},{"id":216,"geo":[50.681797,3.194122],"geo_lat":50.681797,"geo_lng":3.194122,"nom_station":"FRATERNITE","adresse":"PLACE DE LA FRATERNITÉ","type":"AVEC TPE"},{"id":85,"geo":[50.625183,3.100729],"geo_lat":50.625183,"geo_lng":3.100729,"nom_station":"CHANZY","adresse":"58 RUE CHANZY","type":"SANS TPE"},{"id":136,"geo":[50.62972,3.133873],"geo_lat":50.62972,"geo_lng":3.133873,"nom_station":"RUE CHAMBORD","adresse":"RUE CHAMBORD ANGLE AVENUE DE LA CHATELLENIE","type":"SANS TPE"},{"id":147,"geo":[50.61405,3.062195],"geo_lat":50.61405,"geo_lng":3.062195,"nom_station":"FAUBOURG D'ARRAS","adresse":"2 RUE MARCEL HÉNAUX","type":"SANS TPE"},{"id":121,"geo":[50.644855,3.013238],"geo_lat":50.644855,"geo_lng":3.013238,"nom_station":"PONT SUPERIEUR","adresse":"ANGLE DE LA RUE AUGUSTE BONTE  ET DU N°520 DE L’AVENUE DE DUNKERQUE","type":"AVEC TPE"},{"id":128,"geo":[50.633842,3.127335],"geo_lat":50.633842,"geo_lng":3.127335,"nom_station":"RUE LOUISE MICHEL","adresse":"93 RUE LOUISE MICHEL","type":"SANS TPE"},{"id":111,"geo":[50.62486,3.116677],"geo_lat":50.62486,"geo_lng":3.116677,"nom_station":"HELLEMMES CIMETIERE","adresse":"318, RUE ROGER SALENGRO","type":"SANS TPE"},{"id":239,"geo":[50.730278,3.167521],"geo_lat":50.730278,"geo_lng":3.167521,"nom_station":"BVRD DE L EGALITE","adresse":"SECTEUR BVLD EGALITE","type":"SANS TPE"},{"id":260,"geo":[50.72101,3.157978],"geo_lat":50.72101,"geo_lng":3.157978,"nom_station":"PLACE ROUSSEL","adresse":"45, PLACE CHARLES ET ALBERT ROUSSEL","type":"AVEC TPE"},{"id":59,"geo":[50.622223,3.077127],"geo_lat":50.622223,"geo_lng":3.077127,"nom_station":"BELFORT","adresse":"84 RUE DE TREVISE","type":"SANS TPE"},{"id":86,"geo":[50.628742,3.104017],"geo_lat":50.628742,"geo_lng":3.104017,"nom_station":"ROGER SALENGRO","adresse":"68 RUE ROGER SALENGRO","type":"SANS TPE"},{"id":90,"geo":[50.645107,3.086049],"geo_lat":50.645107,"geo_lng":3.086049,"nom_station":"LOUVIERE","adresse":"1 RUE DU DIEU DE MARCQ","type":"AVEC TPE"},{"id":7,"geo":[50.633728,3.055307],"geo_lat":50.633728,"geo_lng":3.055307,"nom_station":"PLACE DE STRASBOURG","adresse":"7 PLACE DE STRASBOURG","type":"SANS TPE"},{"id":17,"geo":[50.644695,3.060867],"geo_lat":50.644695,"geo_lng":3.060867,"nom_station":"HALLE AUX SUCRES","adresse":"33 AVENUE DU PEUPLE BELGE","type":"AVEC TPE"},{"id":208,"geo":[50.67544,3.181998],"geo_lat":50.67544,"geo_lng":3.181998,"nom_station":"DE FOURMIES","adresse":"107, BOULEVARD DE FOURMIES","type":"SANS TPE"},{"id":2,"geo":[50.632233,3.046134],"geo_lat":50.632233,"geo_lng":3.046134,"nom_station":"UNIVERSITE CATHOLIQUE","adresse":"RUE DU PORT BD VAUBAN","type":"AVEC TPE"},{"id":124,"geo":[50.6618,3.096235],"geo_lat":50.6618,"geo_lng":3.096235,"nom_station":"CLEMENCEAU HIPPODROME","adresse":"916-920 AVENUE DE LA RÉPUBLIQ","type":"SANS TPE"},{"id":43,"geo":[50.629044,3.058288],"geo_lat":50.629044,"geo_lng":3.058288,"nom_station":"THEATRE SEBASTOPOL","adresse":"3 PLACE SEBASTOPOL","type":"AVEC TPE"},{"id":60,"geo":[50.621185,3.072363],"geo_lat":50.621185,"geo_lng":3.072363,"nom_station":"TREVISE","adresse":"114 RUE DE DOUAI","type":"SANS TPE"},{"id":33,"geo":[50.63022,3.035681],"geo_lat":50.63022,"geo_lng":3.035681,"nom_station":"PORT DE LILLE","adresse":"18 RUE DE TURENNE","type":"SANS TPE"},{"id":73,"geo":[50.642315,3.087979],"geo_lat":50.642315,"geo_lng":3.087979,"nom_station":"ST MAURICE PELLEVOISIN","adresse":"211 RUE DU FAUBOURG DE ROUBAIX","type":"AVEC TPE"},{"id":246,"geo":[50.72271,3.163794],"geo_lat":50.72271,"geo_lng":3.163794,"nom_station":"CAVELL","adresse":"FACE AU 49 RUE DE LA CLOCHE","type":"SANS TPE"},{"id":206,"geo":[50.688015,3.174815],"geo_lat":50.688015,"geo_lng":3.174815,"nom_station":"ALFRED MONGY","adresse":"15, BOULEVARD DU GÉNÉRAL DE GAULLE","type":"SANS TPE"},{"id":21,"geo":[50.64193,3.061774],"geo_lat":50.64193,"geo_lng":3.061774,"nom_station":"PLACE DU CONCERT","adresse":"RUE ALPHONSE COLAS","type":"AVEC TPE"},{"id":138,"geo":[50.631298,3.126914],"geo_lat":50.631298,"geo_lng":3.126914,"nom_station":"LADRIERE","adresse":"FACE AU 53 RUE DE FIVES","type":"SANS TPE"},{"id":236,"geo":[50.694714,3.192643],"geo_lat":50.694714,"geo_lng":3.192643,"nom_station":"CHAPTAL","adresse":"3, RUE D'AVELGHEM","type":"SANS TPE"},{"id":27,"geo":[50.635014,3.064802],"geo_lat":50.635014,"geo_lng":3.064802,"nom_station":"TANNEURS","adresse":"2 - 10 RUE DES TANNEURS","type":"AVEC TPE"},{"id":39,"geo":[50.627674,3.050173],"geo_lat":50.627674,"geo_lng":3.050173,"nom_station":"MARCHE DE WAZEMMES","adresse":"298 RUE LEON GAMBETTA","type":"AVEC TPE"},{"id":230,"geo":[50.70076,3.18407],"geo_lat":50.70076,"geo_lng":3.18407,"nom_station":"DE LA VIGNE","adresse":"181, BOULEVARD DE STRASBOURG","type":"SANS TPE"},{"id":155,"geo":[50.655098,3.051201],"geo_lat":50.655098,"geo_lng":3.051201,"nom_station":"BAILLY","adresse":"FACE AU 4 RUE GAMBETTA","type":"SANS TPE"},{"id":18,"geo":[50.6428,3.055932],"geo_lat":50.6428,"geo_lng":3.055932,"nom_station":"VOLTAIRE","adresse":"93 RUE ROYALE","type":"SANS TPE"},{"id":126,"geo":[50.64057,3.115571],"geo_lat":50.64057,"geo_lng":3.115571,"nom_station":"LE POLYEDRE","adresse":"FACE AU 38, AVENUE RHIN ET DANUBE","type":"SANS TPE"},{"id":46,"geo":[50.62629,3.061198],"geo_lat":50.62629,"geo_lng":3.061198,"nom_station":"ARTOIS","adresse":"12 RUE D'ARTOIS","type":"AVEC TPE"},{"id":37,"geo":[50.62337,3.037553],"geo_lat":50.62337,"geo_lng":3.037553,"nom_station":"FULTON","adresse":"14 RUE DU BAZINGHIEN","type":"SANS TPE"},{"id":79,"geo":[50.61307,3.047221],"geo_lat":50.61307,"geo_lng":3.047221,"nom_station":"CIMETIERE DU SUD","adresse":"65 RUE DU FAUBOURG DES POSTES","type":"AVEC TPE"},{"id":207,"geo":[50.69138,3.17966],"geo_lat":50.69138,"geo_lng":3.17966,"nom_station":"EUROTELEPORT","adresse":"78-84, BOULEVARD DU GÉNÉRAL LECLERC","type":"AVEC TPE"},{"id":125,"geo":[50.643883,3.118579],"geo_lat":50.643883,"geo_lng":3.118579,"nom_station":"FORT DE MONS","adresse":"12, RUE DE NORMANDIE","type":"SANS TPE"},{"id":100,"geo":[50.651638,3.081625],"geo_lat":50.651638,"geo_lng":3.081625,"nom_station":"SAINT MAUR","adresse":"260 AVENUE DE LA REPUBLIQUE","type":"AVEC TPE"},{"id":109,"geo":[50.623466,3.030667],"geo_lat":50.623466,"geo_lng":3.030667,"nom_station":"SQUARE DU PORTUGAL","adresse":"FACE AU 204 RUE DE LA BASSEE","type":"SANS TPE"},{"id":114,"geo":[50.62651,3.079211],"geo_lat":50.62651,"geo_lng":3.079211,"nom_station":"BOIS HABITE","adresse":"BOULEVARD DU PRÉSIDENT HOOVER","type":"SANS TPE"},{"id":145,"geo":[50.61992,3.14528],"geo_lat":50.61992,"geo_lng":3.14528,"nom_station":"RESIDENCE","adresse":"PLACE N. DAME DE LA NATIVITÉ","type":"SANS TPE"},{"id":243,"geo":[50.718204,3.15749],"geo_lat":50.718204,"geo_lng":3.15749,"nom_station":"VICTOIRE","adresse":"FACE AU 1 PLACE DE LA VICTOIRE","type":"SANS TPE"},{"id":91,"geo":[50.63422,3.096542],"geo_lat":50.63422,"geo_lng":3.096542,"nom_station":"SQUARE DES MERES","adresse":"95 RUE DE LANNOY","type":"SANS TPE"},{"id":214,"geo":[50.6795,3.179257],"geo_lat":50.6795,"geo_lng":3.179257,"nom_station":"SAINT JEAN-BAPTISTE","adresse":"1, RUE LESUEUR","type":"AVEC TPE"},{"id":158,"geo":[50.644943,3.036932],"geo_lat":50.644943,"geo_lng":3.036932,"nom_station":"DELECAUT","adresse":"FACE AU 102 AVENUE HENRI DELECAUX","type":"AVEC TPE"},{"id":120,"geo":[50.639366,3.012452],"geo_lat":50.639366,"geo_lng":3.012452,"nom_station":"LOMME MAIRIE","adresse":"HÔTEL DE VILLE","type":"SANS TPE"},{"id":53,"geo":[50.61856,3.049251],"geo_lat":50.61856,"geo_lng":3.049251,"nom_station":"PORTE DES POSTES","adresse":"1 PLACE BARTHELEMY DOREZ","type":"AVEC TPE"},{"id":55,"geo":[50.617847,3.061758],"geo_lat":50.617847,"geo_lng":3.061758,"nom_station":"PORTE D'ARRAS","adresse":"3 PLACE JACQUES FEBVRIER","type":"AVEC TPE"},{"id":69,"geo":[50.61893,3.032539],"geo_lat":50.61893,"geo_lng":3.032539,"nom_station":"CHASSEURS DE DRIANT","adresse":"11 AVENUE VERHAEREN","type":"SANS TPE"},{"id":29,"geo":[50.647236,3.059376],"geo_lat":50.647236,"geo_lng":3.059376,"nom_station":"ST SEBASTIEN","adresse":"40 RUE SAINT SEBASTIEN","type":"AVEC TPE"},{"id":204,"geo":[50.684757,3.171974],"geo_lat":50.684757,"geo_lng":3.171974,"nom_station":"JEAN MOULIN","adresse":"FACE AU 49 BIS BD DU GÉNÉRAL DE GAULLE","type":"SANS TPE"},{"id":143,"geo":[50.61776,3.146026],"geo_lat":50.61776,"geo_lng":3.146026,"nom_station":"ROND POINT DE TOURNAI","adresse":"55, RUE DES FUSILLÉS","type":"SANS TPE"},{"id":148,"geo":[50.612194,3.074952],"geo_lat":50.612194,"geo_lng":3.074952,"nom_station":"P.I. DE DOUAI","adresse":"RUE DU FAUBOURG DE DOUAI SOUS LE PONT","type":"SANS TPE"},{"id":149,"geo":[50.609592,3.075483],"geo_lat":50.609592,"geo_lng":3.075483,"nom_station":"JEAN JAURES","adresse":"FACE AU 780 AVENUE JEAN JAURES","type":"AVEC TPE"},{"id":20,"geo":[50.640385,3.062053],"geo_lat":50.640385,"geo_lng":3.062053,"nom_station":"N.D. DE LA TREILLE","adresse":"PLACE GILLSON","type":"SANS TPE"},{"id":1,"geo":[50.641926,3.075992],"geo_lat":50.641926,"geo_lng":3.075992,"nom_station":"METROPOLE EUROPEENNE DE LILLE","adresse":"MEL RUE DU BALLON","type":"AVEC TPE"},{"id":107,"geo":[50.636105,3.106438],"geo_lat":50.636105,"geo_lng":3.106438,"nom_station":"LAVOISIER","adresse":"5 RUE LAURENT DE LAVOISIER","type":"SANS TPE"},{"id":247,"geo":[50.734142,3.167987],"geo_lat":50.734142,"geo_lng":3.167987,"nom_station":"ROUGET DE L ISLE","adresse":"SECTEUR BVRD DE L'EGALITÉ","type":"AVEC TPE"},{"id":25,"geo":[50.63603,3.069678],"geo_lat":50.63603,"geo_lng":3.069678,"nom_station":"GARE LILLE FLANDRES","adresse":"PLACE DE LA GARE","type":"AVEC TPE"},{"id":3,"geo":[50.636093,3.050447],"geo_lat":50.636093,"geo_lng":3.050447,"nom_station":"JARDIN VAUBAN","adresse":"39 BOULEVARD VAUBAN","type":"SANS TPE"},{"id":94,"geo":[50.63579,3.033977],"geo_lat":50.63579,"geo_lng":3.033977,"nom_station":"MARX DORMOY","adresse":"RUE DE BORDEAUX","type":"SANS TPE"},{"id":150,"geo":[50.60548,3.077622],"geo_lat":50.60548,"geo_lng":3.077622,"nom_station":"RONCHIN MAIRIE","adresse":"SUR LE PARVIS DE LA MAIRIE","type":"AVEC TPE"},{"id":241,"geo":[50.722343,3.170847],"geo_lat":50.722343,"geo_lng":3.170847,"nom_station":"LE CORBUSIER","adresse":"RUE DES PIATS (SOUS ABRI BUS - PARVIS DE L'ATELIER)","type":"SANS TPE"},{"id":254,"geo":[50.717323,3.162236],"geo_lat":50.717323,"geo_lng":3.162236,"nom_station":"SEBASTOPOL","adresse":"FACE AU 69 RUE CARNOT","type":"SANS TPE"},{"id":211,"geo":[50.674164,3.174519],"geo_lat":50.674164,"geo_lng":3.174519,"nom_station":"GUSTAVE DELORY","adresse":"48, AVENUE GUSTAVE DELORY","type":"AVEC TPE"},{"id":110,"geo":[50.62487,3.034234],"geo_lat":50.62487,"geo_lng":3.034234,"nom_station":"RUE BONTE-POLLET","adresse":"11 RUE BONTE POLLET","type":"AVEC TPE"},{"id":262,"geo":[50.701187,3.215011],"geo_lat":50.701187,"geo_lng":3.215011,"nom_station":"WATTRELOS PLACE","adresse":"2-10, D660","type":"AVEC TPE"},{"id":237,"geo":[50.719803,3.156338],"geo_lat":50.719803,"geo_lng":3.156338,"nom_station":"RUE DES ANGES","adresse":"FACE AU 42 RUE DES ANGES","type":"SANS TPE"},{"id":134,"geo":[50.6221,3.131706],"geo_lat":50.6221,"geo_lng":3.131706,"nom_station":"RUE DES VICTOIRES","adresse":"76, BOULEVARD VAN GOGH","type":"SANS TPE"},{"id":137,"geo":[50.615868,3.126089],"geo_lat":50.615868,"geo_lng":3.126089,"nom_station":"HERON PARC","adresse":"40, RUE DE LA VAGUE","type":"AVEC TPE"},{"id":157,"geo":[50.64989,3.042045],"geo_lat":50.64989,"geo_lng":3.042045,"nom_station":"CANON D'OR","adresse":"FACE AU 255 RUE DE LILLE","type":"AVEC TPE"},{"id":45,"geo":[50.62648,3.056666],"geo_lat":50.62648,"geo_lng":3.056666,"nom_station":"BRULE MAISON","adresse":"51 RUE DES POSTES","type":"SANS TPE"},{"id":212,"geo":[50.682053,3.182205],"geo_lat":50.682053,"geo_lng":3.182205,"nom_station":"DANIELLE LESAFFRE","adresse":"42, RUE DUPUY DE LOMÉ","type":"SANS TPE"},{"id":15,"geo":[50.6449,3.050645],"geo_lat":50.6449,"geo_lng":3.050645,"nom_station":"ESPLANADE","adresse":"PONT DU PETIT PARADIS","type":"AVEC TPE"},{"id":151,"geo":[50.60642,3.072209],"geo_lat":50.60642,"geo_lng":3.072209,"nom_station":"CH. DES MARGUERITOIS","adresse":"FACE AU 152 CHEMIN MARGUERITOIS","type":"SANS TPE"},{"id":233,"geo":[50.702026,3.172654],"geo_lat":50.702026,"geo_lng":3.172654,"nom_station":"RUE DE TOURCOING","adresse":"RUE DE TOURCOING (SUR LA PARKING GRDF)","type":"SANS TPE"},{"id":31,"geo":[50.644264,3.062935],"geo_lat":50.644264,"geo_lng":3.062935,"nom_station":"PONT NEUF","adresse":"38 BIS RUE DU PONT NEUF","type":"SANS TPE"},{"id":4,"geo":[50.624695,3.048961],"geo_lat":50.624695,"geo_lng":3.048961,"nom_station":"MAISON FOLIE WAZEMMES","adresse":"28 RUE DE L'HOPITAL SAINT ROCH","type":"SANS TPE"},{"id":92,"geo":[50.63665,3.091106],"geo_lat":50.63665,"geo_lng":3.091106,"nom_station":"RUE DE LA GAITE","adresse":"9 RUE MARCEAU","type":"SANS TPE"},{"id":225,"geo":[50.683987,3.16327],"geo_lat":50.683987,"geo_lng":3.16327,"nom_station":"EPEULE MONTESQUIEU","adresse":"RUE INKERMAN","type":"SANS TPE"},{"id":251,"geo":[50.72551,3.156554],"geo_lat":50.72551,"geo_lng":3.156554,"nom_station":"COLBERT","adresse":"RUE DE GAND (FACE AU LYCÉE)","type":"SANS TPE"},{"id":66,"geo":[50.63237,3.066273],"geo_lat":50.63237,"geo_lng":3.066273,"nom_station":"DELESALLE MEDIATHEQUE","adresse":"35 RUE EDOUARD DELESALLE","type":"SANS TPE"},{"id":98,"geo":[50.6549,3.068756],"geo_lat":50.6549,"geo_lng":3.068756,"nom_station":"PLACE DU MARCHE","adresse":"ANGLE DE LA RUE GAMBETTA ET LA PLACE FUSILLES ET DEPORTES","type":"AVEC TPE"}]}